{
    "gyms": {
        "e7cef98f976c4bdb9a9c6db8ca1fca32.16": {
            "guid": "e7cef98f976c4bdb9a9c6db8ca1fca32.16",
            "lat": 51.733184,
            "lng": -0.45405,
            "name": "The Denes Shopping Centre"
        },
        "f5ce6226299c48e58476ad4badace37a.16": {
            "guid": "f5ce6226299c48e58476ad4badace37a.16",
            "lat": 51.732522,
            "lng": -0.455812,
            "name": "King George V Pillar Box"
        },
        "4c7a9f17c528402b8d3bc1c2f76a13d4.16": {
            "guid": "4c7a9f17c528402b8d3bc1c2f76a13d4.16",
            "lat": 51.729862,
            "lng": -0.453858,
            "name": "Nash Mills lock 68 - Top lock (c.1797)"
        },
        "7d5be71af2b34e419b57786cc9016927.11": {
            "guid": "7d5be71af2b34e419b57786cc9016927.11",
            "lat": 51.733722,
            "lng": -0.458795,
            "name": "Entrance to Apsley Lock Marina"
        },
        "45c61dab5a744653bccb3dc2b36ff786.16": {
            "guid": "45c61dab5a744653bccb3dc2b36ff786.16",
            "lat": 51.732723,
            "lng": -0.463169,
            "name": "Apsley Rail Station"
        },
        "76f196971db34c36aeb5264ef0dfae05.11": {
            "guid": "76f196971db34c36aeb5264ef0dfae05.11",
            "lat": 51.734599,
            "lng": -0.466057,
            "name": "St. Mary's Apsley End"
        },
        "87df1d7e397a47609ad23b9b41dc776f.16": {
            "guid": "87df1d7e397a47609ad23b9b41dc776f.16",
            "lat": 51.671731,
            "lng": -0.426927,
            "name": "Braunston 71 Miles"
        },
        "289f951f9181444d8ce9f44b99538add.16": {
            "guid": "289f951f9181444d8ce9f44b99538add.16",
            "lat": 51.663762,
            "lng": -0.426172,
            "name": "Cassiobury Park Local Nature Reserve"
        },
        "8c0706b3fe014b4196b348707e21d41f.16": {
            "guid": "8c0706b3fe014b4196b348707e21d41f.16",
            "lat": 51.68864,
            "lng": -0.433745,
            "name": "Grand Union Canal Lock 73 (lower lock)"
        },
        "df041562665945a6955614be576e50bf.16": {
            "guid": "df041562665945a6955614be576e50bf.16",
            "lat": 51.727724,
            "lng": -0.452563,
            "name": "Nash Mills Lock 69 - bottom lock"
        },
        "c125b5c015694c5b845012fcd9e47448.16": {
            "guid": "c125b5c015694c5b845012fcd9e47448.16",
            "lat": 51.731584,
            "lng": -0.447677,
            "name": "Welcome to Langley Tennis Club"
        },
        "8423a915f20a4ad08ea411908f68f2e9.16": {
            "guid": "8423a915f20a4ad08ea411908f68f2e9.16",
            "lat": 51.736352,
            "lng": -0.449545,
            "name": "Barnacres Play Area"
        },
        "309f879cd1594293b4cd68e03f9654f9.16": {
            "guid": "309f879cd1594293b4cd68e03f9654f9.16",
            "lat": 51.736279,
            "lng": -0.461063,
            "name": "Dell Meadow King George V Pillar Box"
        },
        "b4ce373f062f477f8f8020cec8d25952.16": {
            "guid": "b4ce373f062f477f8f8020cec8d25952.16",
            "lat": 51.736905,
            "lng": -0.46748,
            "name": "Kent Brushes"
        },
        "358f6c597b97452fae6b212adb961c15.11": {
            "guid": "358f6c597b97452fae6b212adb961c15.11",
            "lat": 51.740349,
            "lng": -0.466484,
            "name": "New Life Pentecostal Church"
        },
        "1bf6c28a2cb1463fbb6996e2df1192e8.16": {
            "guid": "1bf6c28a2cb1463fbb6996e2df1192e8.16",
            "lat": 51.745913,
            "lng": -0.4857,
            "name": "St Mary & St Joseph Catholic Church, Boxmoor"
        },
        "75bd5884e2a947feb893bb86385c8bca.16": {
            "guid": "75bd5884e2a947feb893bb86385c8bca.16",
            "lat": 51.725979,
            "lng": -0.457271,
            "name": "Rucklers Lane Community Hall"
        },
        "ab3e096b6f4b489d98267cd1fe699dfb.16": {
            "guid": "ab3e096b6f4b489d98267cd1fe699dfb.16",
            "lat": 51.727379,
            "lng": -0.449463,
            "name": "Nash Mills Village Hall"
        },
        "0eb30fa6f72444a3a211e20abd69fa64.16": {
            "guid": "0eb30fa6f72444a3a211e20abd69fa64.16",
            "lat": 51.722609,
            "lng": -0.449779,
            "name": "Grand Union Canal Mile Marker"
        },
        "ae468a49946343c493f2f2c2c3f5527a.16": {
            "guid": "ae468a49946343c493f2f2c2c3f5527a.16",
            "lat": 51.738712,
            "lng": -0.454258,
            "name": "The Quads"
        },
        "eb61e6d46b4a48d599c81098aa317d5f.16": {
            "guid": "eb61e6d46b4a48d599c81098aa317d5f.16",
            "lat": 51.72067,
            "lng": -0.451387,
            "name": "Sunken Pillar box"
        },
        "83f8dbf7256f4cc5ad6d5d57b2f0fd72.16": {
            "guid": "83f8dbf7256f4cc5ad6d5d57b2f0fd72.16",
            "lat": 51.715993,
            "lng": -0.450859,
            "name": "Kings Langley Methodist Church"
        },
        "395a60d27709453296ffe9947ee8342d.16": {
            "guid": "395a60d27709453296ffe9947ee8342d.16",
            "lat": 51.714685,
            "lng": -0.450825,
            "name": "Kings Langley Post Office"
        },
        "433cf476d4344273a8d7fa56548af810.16": {
            "guid": "433cf476d4344273a8d7fa56548af810.16",
            "lat": 51.715057,
            "lng": -0.441517,
            "name": "The Bell"
        },
        "7a9ec5fd93a2427f8e74c3b5a8ea9323.16": {
            "guid": "7a9ec5fd93a2427f8e74c3b5a8ea9323.16",
            "lat": 51.711717,
            "lng": -0.441543,
            "name": "The Ovaltine Factory"
        },
        "63c7897d19024dcaa6d81149017eae69.11": {
            "guid": "63c7897d19024dcaa6d81149017eae69.11",
            "lat": 51.709009,
            "lng": -0.44229,
            "name": "Sea Monster"
        },
        "3b752159d82549b7b7f1a7dd5308aaf9.16": {
            "guid": "3b752159d82549b7b7f1a7dd5308aaf9.16",
            "lat": 52.180017,
            "lng": 1.005207,
            "name": "Charcoal & Churches Trail Marker 1"
        },
        "04ddefaed7ec4aa4a84c19cd9e894b85.16": {
            "guid": "04ddefaed7ec4aa4a84c19cd9e894b85.16",
            "lat": 51.743616,
            "lng": -0.483267,
            "name": "Station Moor"
        },
        "8df34786d7cf430bbf2a77921447d27b.16": {
            "guid": "8df34786d7cf430bbf2a77921447d27b.16",
            "lat": 51.742052,
            "lng": -0.429071,
            "name": "Bunkers Park"
        },
        "bd3c87291379405496d4bd092baa969d.16": {
            "guid": "bd3c87291379405496d4bd092baa969d.16",
            "lat": 51.73694,
            "lng": -0.438315,
            "name": "Orchids badgers and butterflys"
        },
        "1dc2367371504616b99ebcfcdf707eeb.16": {
            "guid": "1dc2367371504616b99ebcfcdf707eeb.16",
            "lat": 51.736677,
            "lng": -0.438379,
            "name": "Long Deans Nature Reserve"
        },
        "8eefdc15137942f89b4699285c70d8f1.16": {
            "guid": "8eefdc15137942f89b4699285c70d8f1.16",
            "lat": 51.741734,
            "lng": -0.448471,
            "name": "St Benedict's Church of England"
        },
        "921aaa32bd99452592688ed2bc852cfe.16": {
            "guid": "921aaa32bd99452592688ed2bc852cfe.16",
            "lat": 51.744279,
            "lng": -0.490931,
            "name": "The Fishery Inn"
        },
        "0c96760ac9124c01958bd19524d88de3.11": {
            "guid": "0c96760ac9124c01958bd19524d88de3.11",
            "lat": 51.742466,
            "lng": -0.490771,
            "name": "Hemel Hempstead Train Station"
        },
        "60628613b6e840fd8369417ea7357735.16": {
            "guid": "60628613b6e840fd8369417ea7357735.16",
            "lat": 51.739086,
            "lng": -0.485201,
            "name": "Grand Union Canal Circular Walk"
        },
        "c7f1fac7743f493baba14a451474a928.16": {
            "guid": "c7f1fac7743f493baba14a451474a928.16",
            "lat": 51.743253,
            "lng": -0.490392,
            "name": "The Station Moor"
        },
        "d09d3962f30a4a2f983dedce97ba412d.16": {
            "guid": "d09d3962f30a4a2f983dedce97ba412d.16",
            "lat": 51.738949,
            "lng": -0.469391,
            "name": "Historic Frogmore Paper Mill"
        },
        "a300df0fb5ed4ff4b9e77483c26066ad.16": {
            "guid": "a300df0fb5ed4ff4b9e77483c26066ad.16",
            "lat": 51.738109,
            "lng": -0.470263,
            "name": "Apsley Community Centre"
        },
        "5d16f66f116e4727b1737199f394afc0.16": {
            "guid": "5d16f66f116e4727b1737199f394afc0.16",
            "lat": 51.738185,
            "lng": -0.480152,
            "name": "Grand Union Canal Circular Walk (Three fields junction)"
        },
        "e4f0623cb2254cab91990de7be7e0170.16": {
            "guid": "e4f0623cb2254cab91990de7be7e0170.16",
            "lat": 51.742204,
            "lng": -0.496931,
            "name": "Boxmoor Lodge"
        },
        "0a13156ab01c4c5199e62d9a35b231a2.16": {
            "guid": "0a13156ab01c4c5199e62d9a35b231a2.16",
            "lat": 51.74567,
            "lng": -0.485103,
            "name": "Boxmoor Trust Estate"
        },
        "422f46aa2167472b8eefe31df15cfdef.16": {
            "guid": "422f46aa2167472b8eefe31df15cfdef.16",
            "lat": 51.744831,
            "lng": -0.481251,
            "name": "Boxmoor Cricket Clubhouse"
        },
        "85c2acb9bde84d6c9cb810121506d797.11": {
            "guid": "85c2acb9bde84d6c9cb810121506d797.11",
            "lat": 51.744544,
            "lng": -0.477299,
            "name": "Sacrifice Cross"
        },
        "3b937befc948418485c44a5e1d752b4f.11": {
            "guid": "3b937befc948418485c44a5e1d752b4f.11",
            "lat": 51.744521,
            "lng": -0.476109,
            "name": "Boxmoor Memorial Well"
        },
        "7b7d4f77208c47daa4a38197bf2c2fc7.16": {
            "guid": "7b7d4f77208c47daa4a38197bf2c2fc7.16",
            "lat": 51.744324,
            "lng": -0.475285,
            "name": "Hemel Hempstead Cricket Club"
        },
        "a2331c0b33694b62b36d19418d36825f.11": {
            "guid": "a2331c0b33694b62b36d19418d36825f.11",
            "lat": 51.746744,
            "lng": -0.474008,
            "name": "Hemel Shoppers Bridge"
        },
        "54b6fe1e85f6485588f35244e27ff908.16": {
            "guid": "54b6fe1e85f6485588f35244e27ff908.16",
            "lat": 51.746283,
            "lng": -0.474996,
            "name": "Film Reel Sculpture"
        },
        "8f54747a578048b98f5b0a10f935d350.11": {
            "guid": "8f54747a578048b98f5b0a10f935d350.11",
            "lat": 51.748714,
            "lng": -0.47269,
            "name": "Rainbow Statue"
        },
        "e6bf9619a8064a66892cf381c482b276.16": {
            "guid": "e6bf9619a8064a66892cf381c482b276.16",
            "lat": 51.752514,
            "lng": -0.472585,
            "name": "Market Charter Granted by Henry VIII"
        },
        "6971bc1795a6447d80cd829637b75382.16": {
            "guid": "6971bc1795a6447d80cd829637b75382.16",
            "lat": 51.754272,
            "lng": -0.472861,
            "name": "Hemel Central Library"
        }
    },
    "pokestops": {
        "d755c6d560da44689b56a9947a7323e5.16": {
            "guid": "d755c6d560da44689b56a9947a7323e5.16",
            "lat": 51.729621,
            "lng": -0.450787,
            "name": "Memorial Plaque"
        },
        "58eeca9748f248ae8a5e8c9a83c7b5e7.16": {
            "guid": "58eeca9748f248ae8a5e8c9a83c7b5e7.16",
            "lat": 51.733227,
            "lng": -0.456943,
            "name": "Nash Mills Marker (North)"
        },
        "53f80d0149254975bfcfaeace6aa9350.16": {
            "guid": "53f80d0149254975bfcfaeace6aa9350.16",
            "lat": 51.728728,
            "lng": -0.451396,
            "name": "Nash Mills Wharf play area"
        },
        "f6c17acb5bab4205857f5e7f3499cd6d.16": {
            "guid": "f6c17acb5bab4205857f5e7f3499cd6d.16",
            "lat": 51.729648,
            "lng": -0.457056,
            "name": "Shendish Manor"
        },
        "9671b0edb6e94e2b86474d43974409ac.16": {
            "guid": "9671b0edb6e94e2b86474d43974409ac.16",
            "lat": 51.731004,
            "lng": -0.455462,
            "name": "Swan Mead Play Area"
        },
        "3368f7f759b844779fe88bc93c711af2.16": {
            "guid": "3368f7f759b844779fe88bc93c711af2.16",
            "lat": 51.731247,
            "lng": -0.452786,
            "name": "The Three Tuns"
        },
        "58394994bfe64b598274756cb9ec5f77.16": {
            "guid": "58394994bfe64b598274756cb9ec5f77.16",
            "lat": 51.729764,
            "lng": -0.452842,
            "name": "Waterfall steps"
        },
        "603f7a2495334c24a84cd2eaa9d538aa.16": {
            "guid": "603f7a2495334c24a84cd2eaa9d538aa.16",
            "lat": 51.730633,
            "lng": -0.454791,
            "name": "Willows Residents Association"
        },
        "b8ce254794384766a70a09db4dbd136c.16": {
            "guid": "b8ce254794384766a70a09db4dbd136c.16",
            "lat": 51.73586,
            "lng": -0.456139,
            "name": "Fairway King George V"
        },
        "586dae549b2a47a08564a9545a8e59ae.11": {
            "guid": "586dae549b2a47a08564a9545a8e59ae.11",
            "lat": 51.733772,
            "lng": -0.462421,
            "name": "Flour Mill Stone"
        },
        "99705687b6af475fb66b0b147162d4ba.11": {
            "guid": "99705687b6af475fb66b0b147162d4ba.11",
            "lat": 51.733583,
            "lng": -0.461413,
            "name": "Navigation Bridge"
        },
        "8ecadb4f19b44b4bbb5e45a1a96e2308.11": {
            "guid": "8ecadb4f19b44b4bbb5e45a1a96e2308.11",
            "lat": 51.733326,
            "lng": -0.462774,
            "name": "Apsley Old Paper Mill"
        },
        "30b5d654f8a24480b4aad99409272396.16": {
            "guid": "30b5d654f8a24480b4aad99409272396.16",
            "lat": 51.733138,
            "lng": -0.460121,
            "name": "Apsley Marina Drawbridge"
        },
        "ebfd43208e75451db79a4040ccb090b3.16": {
            "guid": "ebfd43208e75451db79a4040ccb090b3.16",
            "lat": 51.732353,
            "lng": -0.458767,
            "name": "Apsley Park"
        },
        "0eea18aa4cfb40458fb4c97d9b27ef1b.16": {
            "guid": "0eea18aa4cfb40458fb4c97d9b27ef1b.16",
            "lat": 51.732337,
            "lng": -0.459338,
            "name": "Bridge 154- Grand Union Canal"
        },
        "ae957066b92c43b4b962a7fc91a65716.11": {
            "guid": "ae957066b92c43b4b962a7fc91a65716.11",
            "lat": 51.734196,
            "lng": -0.461604,
            "name": "Canal Mile Marker"
        },
        "f06a13fef1c14ea8a54aea4c0abbad31.16": {
            "guid": "f06a13fef1c14ea8a54aea4c0abbad31.16",
            "lat": 51.73308,
            "lng": -0.462346,
            "name": "The Paper Mill"
        },
        "15b0e9b6018043c2b738c7cfc2c0aa52.11": {
            "guid": "15b0e9b6018043c2b738c7cfc2c0aa52.11",
            "lat": 51.736098,
            "lng": -0.465059,
            "name": "Sainsbury's Plaque"
        },
        "bce7d00d6aad4f14bc452a537d744b78.11": {
            "guid": "bce7d00d6aad4f14bc452a537d744b78.11",
            "lat": 51.735962,
            "lng": -0.463998,
            "name": "The Canal Footbridge"
        },
        "c52d4d3f029a4f6a8706dcdf345ec977.16": {
            "guid": "c52d4d3f029a4f6a8706dcdf345ec977.16",
            "lat": 51.738103,
            "lng": -0.465616,
            "name": "Coffee Factory Footbridge"
        },
        "dc0ab3a401323ba7810bb0eee2392d3b.16": {
            "guid": "dc0ab3a401323ba7810bb0eee2392d3b.16",
            "lat": 51.741017,
            "lng": -0.469575,
            "name": "Exercise Equipment"
        },
        "b5c3bf698eeb42d1875e095a8bfa28ac.16": {
            "guid": "b5c3bf698eeb42d1875e095a8bfa28ac.16",
            "lat": 51.739776,
            "lng": -0.468818,
            "name": "Frogmore Rocks"
        },
        "2d7ffe25b5003b35beecbe46f7ea61af.16": {
            "guid": "2d7ffe25b5003b35beecbe46f7ea61af.16",
            "lat": 51.740286,
            "lng": -0.46857,
            "name": "Miniature Climbing Frame"
        },
        "d6a74d3b86104c648f6a7adf5ae5e05a.16": {
            "guid": "d6a74d3b86104c648f6a7adf5ae5e05a.16",
            "lat": 51.742349,
            "lng": -0.473625,
            "name": "Sunny side up"
        },
        "bd909817d137452699529fa5b02563b4.16": {
            "guid": "bd909817d137452699529fa5b02563b4.16",
            "lat": 51.670848,
            "lng": -0.427718,
            "name": "Lock 76, Cassiobury Park Lock"
        },
        "8ee154bace61426a830e0e3a5f937865.16": {
            "guid": "8ee154bace61426a830e0e3a5f937865.16",
            "lat": 51.664217,
            "lng": -0.427095,
            "name": "Welcome to Cassiobury Park"
        },
        "53b1e9e7a4f547c78de87c021be30adf.16": {
            "guid": "53b1e9e7a4f547c78de87c021be30adf.16",
            "lat": 51.663643,
            "lng": -0.425448,
            "name": "Cassiobury Wetland Haven"
        },
        "17949bada41c4d3d838a1064bfe156c4.16": {
            "guid": "17949bada41c4d3d838a1064bfe156c4.16",
            "lat": 51.690472,
            "lng": -0.434954,
            "name": "Grand Union Canal Lock 72"
        },
        "d362e8b7024e496e89b318911725f6bc.16": {
            "guid": "d362e8b7024e496e89b318911725f6bc.16",
            "lat": 51.713447,
            "lng": -0.44385,
            "name": "Kings Langley Map at bridge 158"
        },
        "ca8aaca35ee64d86a750c038d9cd3df1.16": {
            "guid": "ca8aaca35ee64d86a750c038d9cd3df1.16",
            "lat": 51.713994,
            "lng": -0.444477,
            "name": "Kings Langley Lock, Lock 69A"
        },
        "6542b126f9b348dbb519787ba3dd3282.16": {
            "guid": "6542b126f9b348dbb519787ba3dd3282.16",
            "lat": 51.726925,
            "lng": -0.452848,
            "name": "Hemel Hempstead Canoe Club"
        },
        "90e696ecb0e843848ac2c7a5f2a8aaea.16": {
            "guid": "90e696ecb0e843848ac2c7a5f2a8aaea.16",
            "lat": 51.726394,
            "lng": -0.452358,
            "name": "Berkhamsted motorcyle club - Nash Mills motocross site"
        },
        "f41933b097773dceacfbdc5442544103.16": {
            "guid": "f41933b097773dceacfbdc5442544103.16",
            "lat": 51.727547,
            "lng": -0.453116,
            "name": "Wooden house playground"
        },
        "ceb3ba09ab8245edb5d0fafe7d65d995.16": {
            "guid": "ceb3ba09ab8245edb5d0fafe7d65d995.16",
            "lat": 51.731803,
            "lng": -0.447348,
            "name": "Long Deans Nature reserve orchids"
        },
        "9aec0186e1b54b2d9a3c182fdbe34c78.16": {
            "guid": "9aec0186e1b54b2d9a3c182fdbe34c78.16",
            "lat": 51.731704,
            "lng": -0.44712,
            "name": "A Valley of Wildflower Grassland"
        },
        "158c71d9cfec4db9892c47e5b591371e.16": {
            "guid": "158c71d9cfec4db9892c47e5b591371e.16",
            "lat": 51.739992,
            "lng": -0.451018,
            "name": "Coronation Fields Tennis Courts"
        },
        "0df16ee02af33db1b873c6ebce651344.16": {
            "guid": "0df16ee02af33db1b873c6ebce651344.16",
            "lat": 51.733665,
            "lng": -0.453832,
            "name": "Council noticeboard"
        },
        "416e56178e693a708e7df11fe9deb8ce.16": {
            "guid": "416e56178e693a708e7df11fe9deb8ce.16",
            "lat": 51.733472,
            "lng": -0.45332,
            "name": "Wildlife & Pollinators Habitat board"
        },
        "1839e8ac85cb42d7a4ba059025630ae0.16": {
            "guid": "1839e8ac85cb42d7a4ba059025630ae0.16",
            "lat": 51.740344,
            "lng": -0.458829,
            "name": "Athelstan Road King George Pillar box"
        },
        "89c4767f60c34297ac582c846cf41a36.16": {
            "guid": "89c4767f60c34297ac582c846cf41a36.16",
            "lat": 51.736769,
            "lng": -0.467938,
            "name": "The Oddfellows Arms"
        },
        "aff93709d21b3805839ceab03f2fece7.16": {
            "guid": "aff93709d21b3805839ceab03f2fece7.16",
            "lat": 51.741235,
            "lng": -0.470288,
            "name": "Monkey Bars"
        },
        "f9daa3e794f73899962f43f517e5cd0c.16": {
            "guid": "f9daa3e794f73899962f43f517e5cd0c.16",
            "lat": 51.74109,
            "lng": -0.46826,
            "name": "Dacorum Borough Council Noticeboard"
        },
        "57a5644349bd436fb229acc7df5b0ece.16": {
            "guid": "57a5644349bd436fb229acc7df5b0ece.16",
            "lat": 51.74297,
            "lng": -0.475862,
            "name": "Lock 64, Grand Union Canal"
        },
        "214860c67d354fe9ac3074d48e3297c6.16": {
            "guid": "214860c67d354fe9ac3074d48e3297c6.16",
            "lat": 51.743096,
            "lng": -0.476991,
            "name": "Braunston 65 Mile Marker"
        },
        "f240d51565e0424f83c25fe8bc13bca0.16": {
            "guid": "f240d51565e0424f83c25fe8bc13bca0.16",
            "lat": 51.739667,
            "lng": -0.469437,
            "name": "Frogmore Play Area"
        },
        "abd283f7639e36fab7c5070e381ff557.16": {
            "guid": "abd283f7639e36fab7c5070e381ff557.16",
            "lat": 51.729471,
            "lng": -0.449498,
            "name": "Bunkers Park playground"
        },
        "b9fcf16371fd4b9ab8e43d62e4e5de33.16": {
            "guid": "b9fcf16371fd4b9ab8e43d62e4e5de33.16",
            "lat": 51.746019,
            "lng": -0.486073,
            "name": "St Johns Road Post Office"
        },
        "b9f5efdf5f2a416abbd3fc079dc6a230.16": {
            "guid": "b9f5efdf5f2a416abbd3fc079dc6a230.16",
            "lat": 51.734446,
            "lng": -0.467584,
            "name": "Pipit Walk playground"
        },
        "f524513c8a5b41eca30afaf8bf226528.16": {
            "guid": "f524513c8a5b41eca30afaf8bf226528.16",
            "lat": 51.727054,
            "lng": -0.454505,
            "name": "Dacorum Borough Council Noticeboard"
        },
        "d3cefcfdea404395a04cd37022023030.16": {
            "guid": "d3cefcfdea404395a04cd37022023030.16",
            "lat": 51.727205,
            "lng": -0.453879,
            "name": "Nash Mills Recreation Centre"
        },
        "09a9ca448c4d4c23a1dd704911d07f3d.16": {
            "guid": "09a9ca448c4d4c23a1dd704911d07f3d.16",
            "lat": 51.727484,
            "lng": -0.454166,
            "name": "The Red Lion"
        },
        "3902a4cecaaf4a1fa6398b8eb7367091.16": {
            "guid": "3902a4cecaaf4a1fa6398b8eb7367091.16",
            "lat": 51.72615,
            "lng": -0.454033,
            "name": "Abbots Rise Notice board"
        },
        "843a8c0446fc4b66a33f1964f18b415c.16": {
            "guid": "843a8c0446fc4b66a33f1964f18b415c.16",
            "lat": 51.724856,
            "lng": -0.460071,
            "name": "Rucklers Lane Playground"
        },
        "9255c2054a7135279d76b1f3ee08aef7.16": {
            "guid": "9255c2054a7135279d76b1f3ee08aef7.16",
            "lat": 51.724439,
            "lng": -0.449889,
            "name": "Grand Union Canal Bridge 156"
        },
        "bcbc54136a2845168ddaa5629b841d9e.16": {
            "guid": "bcbc54136a2845168ddaa5629b841d9e.16",
            "lat": 51.722024,
            "lng": -0.451498,
            "name": "Gaywood Park"
        },
        "94273c25f5d04312a0eda4b2233227d7.16": {
            "guid": "94273c25f5d04312a0eda4b2233227d7.16",
            "lat": 51.71433,
            "lng": -0.450721,
            "name": "Kings Langley Services Club"
        },
        "3159164d55d940eb8cf3c0b44db49b72.16": {
            "guid": "3159164d55d940eb8cf3c0b44db49b72.16",
            "lat": 51.716075,
            "lng": -0.450259,
            "name": "Step forward, through history, on the footpaths of Kings Langley"
        },
        "5d81d8d803774adf8b30b9e3581ff80e.16": {
            "guid": "5d81d8d803774adf8b30b9e3581ff80e.16",
            "lat": 51.716738,
            "lng": -0.449916,
            "name": "Kings Langley Village Centre"
        },
        "49477204128746d7b4377c2c849a5cc0.16": {
            "guid": "49477204128746d7b4377c2c849a5cc0.16",
            "lat": 51.716181,
            "lng": -0.442157,
            "name": "The Old Chapel"
        },
        "adbaf11203754c549c40769dde647aa1.16": {
            "guid": "adbaf11203754c549c40769dde647aa1.16",
            "lat": 51.71531,
            "lng": -0.44533,
            "name": "Tooveys Mill Footbridge (157)"
        },
        "80373ad0c77b4c99aa8b673ec0e61cf2.16": {
            "guid": "80373ad0c77b4c99aa8b673ec0e61cf2.16",
            "lat": 51.709765,
            "lng": -0.442663,
            "name": "Braunston 68 Miles"
        },
        "08778cfe66b64888bd51dad6950a3181.16": {
            "guid": "08778cfe66b64888bd51dad6950a3181.16",
            "lat": 51.712084,
            "lng": -0.44116,
            "name": "Ovaltine North Play Area"
        },
        "d2f63c2279774cccb6d329014768a5c3.16": {
            "guid": "d2f63c2279774cccb6d329014768a5c3.16",
            "lat": 51.711341,
            "lng": -0.441002,
            "name": "Ovaltine Playground"
        },
        "bbe0d71b5f2a468d8610febbb65c3550.16": {
            "guid": "bbe0d71b5f2a468d8610febbb65c3550.16",
            "lat": 51.722436,
            "lng": -0.447693,
            "name": "Kings langley angling club"
        },
        "13b54077eca34792abfbe26c5bbbff94.16": {
            "guid": "13b54077eca34792abfbe26c5bbbff94.16",
            "lat": 51.729938,
            "lng": -0.442478,
            "name": "Langley Tennis Club Clubhouse and Indoor courts"
        },
        "1262fb688aed45828b97763f6fc745c8.16": {
            "guid": "1262fb688aed45828b97763f6fc745c8.16",
            "lat": 51.741264,
            "lng": -0.434381,
            "name": "Acorn carving bench"
        },
        "6cd5eb77c4d1432e88e77ca68e317d2d.16": {
            "guid": "6cd5eb77c4d1432e88e77ca68e317d2d.16",
            "lat": 51.742518,
            "lng": -0.448315,
            "name": "Bennetts end post office"
        },
        "fb380e79f81646fb8a4718b57bf368f3.16": {
            "guid": "fb380e79f81646fb8a4718b57bf368f3.16",
            "lat": 51.74784,
            "lng": -0.456815,
            "name": "The XC Skate Park"
        },
        "66a622cf5f7037a393ee30ad3aac7de2.16": {
            "guid": "66a622cf5f7037a393ee30ad3aac7de2.16",
            "lat": 51.743334,
            "lng": -0.439059,
            "name": "Wildlife Notice Board"
        },
        "79482d8273cb4ca3a6cc301ca00823f4.16": {
            "guid": "79482d8273cb4ca3a6cc301ca00823f4.16",
            "lat": 52.177057,
            "lng": 1.007634,
            "name": "Lavenham Way play area"
        },
        "40bebff6c20840069c6170dd4e7dff69.16": {
            "guid": "40bebff6c20840069c6170dd4e7dff69.16",
            "lat": 52.181279,
            "lng": 1.005422,
            "name": "Commemorative Plaque - Stowmarket Inner Relief Road"
        },
        "040f5f47b6fc40ae978b04f0073aacb4.16": {
            "guid": "040f5f47b6fc40ae978b04f0073aacb4.16",
            "lat": 52.179867,
            "lng": 1.003006,
            "name": "Charcoal & Churches Trail Marker 2"
        },
        "459b5581a587418a9d5f915f7407e6a1.16": {
            "guid": "459b5581a587418a9d5f915f7407e6a1.16",
            "lat": 52.178678,
            "lng": 1.002872,
            "name": "Charcoal & Churches Trail Marker 3"
        },
        "4066a98d4bd7475b96078d0b8205c14b.16": {
            "guid": "4066a98d4bd7475b96078d0b8205c14b.16",
            "lat": 51.736633,
            "lng": -0.436077,
            "name": "Herts and Middlesex Nature Reserve"
        },
        "4814769c8bc531d3b187a4e75148b172.16": {
            "guid": "4814769c8bc531d3b187a4e75148b172.16",
            "lat": 51.743741,
            "lng": -0.471542,
            "name": "Historic Corner Hall Sign"
        },
        "70f4a826b9024450871cf954ebd41016.16": {
            "guid": "70f4a826b9024450871cf954ebd41016.16",
            "lat": 51.743648,
            "lng": -0.485249,
            "name": "Nature Restoration Project Board"
        },
        "2a63ef722705416cb31cce5b31e3692b.16": {
            "guid": "2a63ef722705416cb31cce5b31e3692b.16",
            "lat": 51.743662,
            "lng": -0.484925,
            "name": "Boxmoor Trust Blue Walk Marker"
        },
        "221f09f146b84957978c491a962358b6.16": {
            "guid": "221f09f146b84957978c491a962358b6.16",
            "lat": 51.740605,
            "lng": -0.438239,
            "name": "Welcome to Bunkers Park"
        },
        "8272a4d61ec94282b56d7b8dd81a96ab.16": {
            "guid": "8272a4d61ec94282b56d7b8dd81a96ab.16",
            "lat": 51.73949,
            "lng": -0.435612,
            "name": "Chambersbury Wood"
        },
        "c103c301728a4a088eff76b811696482.16": {
            "guid": "c103c301728a4a088eff76b811696482.16",
            "lat": 51.741893,
            "lng": -0.428427,
            "name": "Bunkers Park"
        },
        "5e0b6af458d539748721ef861f58cdd8.16": {
            "guid": "5e0b6af458d539748721ef861f58cdd8.16",
            "lat": 51.740376,
            "lng": -0.426582,
            "name": "Wildflower Grassland"
        },
        "2a6307bbf2db4b29a4db4ebda1393610.16": {
            "guid": "2a6307bbf2db4b29a4db4ebda1393610.16",
            "lat": 51.737345,
            "lng": -0.438339,
            "name": "Blue Circular Walk"
        },
        "faf6253d1eea4dd883ce8674be4ec9e6.16": {
            "guid": "faf6253d1eea4dd883ce8674be4ec9e6.16",
            "lat": 51.741312,
            "lng": -0.449006,
            "name": "Greenacres Tavern Freehouse"
        },
        "6e77f49c2bdb48f58a3c5b8b5d5f9fc0.16": {
            "guid": "6e77f49c2bdb48f58a3c5b8b5d5f9fc0.16",
            "lat": 51.744102,
            "lng": -0.491544,
            "name": "Grand Union Canal Walk"
        },
        "98b238a603ad4fb3b2390df8458433ce.16": {
            "guid": "98b238a603ad4fb3b2390df8458433ce.16",
            "lat": 51.745668,
            "lng": -0.487539,
            "name": "Boxmoor Post Office"
        },
        "41c6740e61294a4d83d5f6d90cc1b7c2.16": {
            "guid": "41c6740e61294a4d83d5f6d90cc1b7c2.16",
            "lat": 51.740749,
            "lng": -0.491746,
            "name": "Walk this way"
        },
        "296e886307794c91b91547e96968aa60.16": {
            "guid": "296e886307794c91b91547e96968aa60.16",
            "lat": 51.738816,
            "lng": -0.483707,
            "name": "Two trails (Box Moor Red Walk & GUCC Walk)"
        },
        "fd0aa668d4f64def82b896b1ab36fbef.16": {
            "guid": "fd0aa668d4f64def82b896b1ab36fbef.16",
            "lat": 51.739404,
            "lng": -0.472485,
            "name": "Ring a Bell"
        },
        "6df771be06c24f1797ef99cf62f61bca.16": {
            "guid": "6df771be06c24f1797ef99cf62f61bca.16",
            "lat": 51.738869,
            "lng": -0.471358,
            "name": "George V post box"
        },
        "2521b1c2ca6c34919512fe9c6639155e.16": {
            "guid": "2521b1c2ca6c34919512fe9c6639155e.16",
            "lat": 51.738819,
            "lng": -0.4725,
            "name": "Sunrise Church"
        },
        "1fc3ea8ce9ec4a5f9839531677f1673d.16": {
            "guid": "1fc3ea8ce9ec4a5f9839531677f1673d.16",
            "lat": 51.739284,
            "lng": -0.480008,
            "name": "Box Moor Trust Red Walk - this way to checkpoint 3"
        },
        "c461e84fe0154d3bbad2975242b683fa.16": {
            "guid": "c461e84fe0154d3bbad2975242b683fa.16",
            "lat": 51.743179,
            "lng": -0.497166,
            "name": "A41 Subway Artwork"
        },
        "602a394714da48279c40010d56de4c4b.16": {
            "guid": "602a394714da48279c40010d56de4c4b.16",
            "lat": 51.74049,
            "lng": -0.485617,
            "name": "Roughdown Common"
        },
        "8a8a9ee30ead4ed689b93bf6fe0ca156.16": {
            "guid": "8a8a9ee30ead4ed689b93bf6fe0ca156.16",
            "lat": 51.74525,
            "lng": -0.485184,
            "name": "Blackbirds Moor Play Area"
        },
        "ae4b1cf09ec643bc82641555d079978c.16": {
            "guid": "ae4b1cf09ec643bc82641555d079978c.16",
            "lat": 51.745499,
            "lng": -0.481234,
            "name": "Boxmoor Cricket Club Notice Board"
        },
        "bf3c5019de0c4a2c904aa585847fe773.16": {
            "guid": "bf3c5019de0c4a2c904aa585847fe773.16",
            "lat": 51.745398,
            "lng": -0.480287,
            "name": "Boxmoor Playhouse"
        },
        "4b2b27738fdf4060957558f3cb6c6055.16": {
            "guid": "4b2b27738fdf4060957558f3cb6c6055.16",
            "lat": 51.744278,
            "lng": -0.480438,
            "name": "Blackbirds Moor South Sign"
        },
        "396221e389a8499f9ba75d2d365df9be.16": {
            "guid": "396221e389a8499f9ba75d2d365df9be.16",
            "lat": 51.744562,
            "lng": -0.481804,
            "name": "Bowling and Batting Practice Nets"
        },
        "9a650f3eeaf448ed98e1c374725647fe.16": {
            "guid": "9a650f3eeaf448ed98e1c374725647fe.16",
            "lat": 51.745136,
            "lng": -0.478699,
            "name": "Multi-Sport Area - Boxmoor - Welcome sign"
        },
        "ddeac59aa6ce41f9a3c4022171553ae3.16": {
            "guid": "ddeac59aa6ce41f9a3c4022171553ae3.16",
            "lat": 51.745259,
            "lng": -0.477892,
            "name": "Hemel Hempstead Sports Centre"
        },
        "55cc459766c648aabcf5df929713225b.16": {
            "guid": "55cc459766c648aabcf5df929713225b.16",
            "lat": 51.744551,
            "lng": -0.476784,
            "name": "Centennial Bench"
        },
        "fe7dd99b6f8049e1a036e85d60c8c1fc.16": {
            "guid": "fe7dd99b6f8049e1a036e85d60c8c1fc.16",
            "lat": 51.744676,
            "lng": -0.475889,
            "name": "Boxmoor Hall"
        },
        "5a38c15a7ca24d19b9ee414becbb546b.16": {
            "guid": "5a38c15a7ca24d19b9ee414becbb546b.16",
            "lat": 51.744275,
            "lng": -0.478455,
            "name": "St John's Church Noticeboard South"
        },
        "bc93d549c7e33a44bfb081ddf0e885d1.16": {
            "guid": "bc93d549c7e33a44bfb081ddf0e885d1.16",
            "lat": 51.742446,
            "lng": -0.479378,
            "name": "Box Moor Trust Red Walk 1"
        },
        "fcaff9433e51457692d0cc01128fc47b.16": {
            "guid": "fcaff9433e51457692d0cc01128fc47b.16",
            "lat": 51.74232,
            "lng": -0.479107,
            "name": "Restoration of the river Bulbourne."
        },
        "52f7aa9b9f3442ec99a7f65e24d61331.16": {
            "guid": "52f7aa9b9f3442ec99a7f65e24d61331.16",
            "lat": 51.744519,
            "lng": -0.479002,
            "name": "Parish Church of St John the Evangelist"
        },
        "58c954732cbe346fae1a600ca53d7297.16": {
            "guid": "58c954732cbe346fae1a600ca53d7297.16",
            "lat": 51.741824,
            "lng": -0.475642,
            "name": "Box Moor Trust Blue Walk - 1"
        },
        "8826642750a0334ab021fe393b16bb47.16": {
            "guid": "8826642750a0334ab021fe393b16bb47.16",
            "lat": 51.745806,
            "lng": -0.473852,
            "name": "Subway Art Gallery"
        },
        "4c9fae5b794c460ebdde07988cd4109c.11": {
            "guid": "4c9fae5b794c460ebdde07988cd4109c.11",
            "lat": 51.747833,
            "lng": -0.472649,
            "name": "Riverside Stone Sculpture"
        },
        "1af7da5942f14a0ebe9ab5dc4e7809af.16": {
            "guid": "1af7da5942f14a0ebe9ab5dc4e7809af.16",
            "lat": 51.747436,
            "lng": -0.473329,
            "name": "Town Clock Tower"
        },
        "1c451406943040729384b312131a0a0f.16": {
            "guid": "1c451406943040729384b312131a0a0f.16",
            "lat": 51.753549,
            "lng": -0.472621,
            "name": "The Full House"
        },
        "df1dc40ded844a68aed52a765d78ca54.16": {
            "guid": "df1dc40ded844a68aed52a765d78ca54.16",
            "lat": 51.736325,
            "lng": -0.437627,
            "name": "Herts and middlesex wildlife walk green marker"
        }
    },
    "notpogo": {
        "cb1fe4ac592b49048d7844f18e4e6ed2.11": {
            "guid": "cb1fe4ac592b49048d7844f18e4e6ed2.11",
            "lat": 51.733591,
            "lng": -0.462442,
            "name": "John Dickinson Plaque"
        },
        "4b0c50b615f44598a065eee2e45eb1cb.16": {
            "guid": "4b0c50b615f44598a065eee2e45eb1cb.16",
            "lat": 51.733533,
            "lng": -0.461742,
            "name": "The Paper Mill Pub"
        },
        "f66681a95a5e45fc85a65bda6ef4eaea.16": {
            "guid": "f66681a95a5e45fc85a65bda6ef4eaea.16",
            "lat": 51.733297,
            "lng": -0.458766,
            "name": "Apsley Basin Gate"
        },
        "cd84c1f5aa0e408795b3b691ed3ca791.11": {
            "guid": "cd84c1f5aa0e408795b3b691ed3ca791.11",
            "lat": 51.736317,
            "lng": -0.463722,
            "name": "Apsley Lock Flight"
        },
        "9fa950579a5b4060822fdf820ec999a2.16": {
            "guid": "9fa950579a5b4060822fdf820ec999a2.16",
            "lat": 51.733293,
            "lng": -0.462485,
            "name": "WW I memorial cross"
        },
        "9b9249d2d281498a85fc52ca555d05b6.16": {
            "guid": "9b9249d2d281498a85fc52ca555d05b6.16",
            "lat": 51.736892,
            "lng": -0.467687,
            "name": "Kent Brushes Lady"
        },
        "26b6f85770c9453497a8777bad691148.16": {
            "guid": "26b6f85770c9453497a8777bad691148.16",
            "lat": 51.73707,
            "lng": -0.438266,
            "name": "Bunkers Park"
        },
        "6dc217f352824ad9b903032672aef97e.16": {
            "guid": "6dc217f352824ad9b903032672aef97e.16",
            "lat": 51.743749,
            "lng": -0.491253,
            "name": "The Boxmoor Trust - Blue Walk"
        },
        "ad3e2f582ff93af9a58fb632f572ab0a.16": {
            "guid": "ad3e2f582ff93af9a58fb632f572ab0a.16",
            "lat": 51.74436,
            "lng": -0.474898,
            "name": "Bee House"
        },
        "c16289dd7ae3423484c8d47adbaca9c8.16": {
            "guid": "c16289dd7ae3423484c8d47adbaca9c8.16",
            "lat": 51.744907,
            "lng": -0.478503,
            "name": "St Johns Church Information Board North"
        },
        "1c324668783d4e989bbc0c3a6c3081da.16": {
            "guid": "1c324668783d4e989bbc0c3a6c3081da.16",
            "lat": 51.671916,
            "lng": -0.426543,
            "name": "Lock 75, Grand Union Canal"
        }
    },
    "ignoredCellsExtraGyms": {
        "F2ij[1353,8270]@14": true,
        "F2ij[1352,8269]@14": true,
        "F2ij[1351,8267]@14": true,
        "F2ij[1354,8267]@14": true,
        "F2ij[1352,8268]@14": true
    },
    "ignoredCellsMissingGyms": {}
}